NAME,LATITUDE,LONGITUDE
Caxiuana,-1.735681,-51.46198
Manaus,-2.958,-59.938
"IPIXUNA, BR",-7.05,-71.68
"IQUITOS, PE",-3.783,-73.3
"SERRA DO MOA, BR",-7.44,-73.65
"BRASILEIA PCD, BR",-11.02,-68.74
"COBIJA, BL",-11.03,-68.78
"SERINGAL DA CARIDADE, BR",-9.03,-68.57
"TAUMATURGO, BR",-8.94,-72.79
"PALMEIRAS DO JAVARI, BR",-5.13,-72.8
"SERINGAL SAO JOSE, BR",-9.32,-68.72
"FEIJO, BR",-8.15,-70.37
"PORTO VALTER, BR",-8.27,-72.73
"XAPURI, BR",-10.65,-68.51
"FOZ DO JORDAO, BR",-9.43,-71.88
"SERINGAL BOA FE, BR",-7.24,-72.33
"SERINGAL SANTO AMARO, BR",-7.27,-70.98
"ENVIRA, BR",-7.32,-70.25
"FAZENDA JUSSARA, BR",-9.35,-69.92
"SERINGAL GUARANY, BR",-9.35,-69.42
"FOZ DO GREGORIO, BR",-6.8,-70.65
"FAZENDA SANTO AFONSO, BR",-10.07,-67.93
"FAZENDA CALIFORNIA, BR",-9.13,-70.82
"FAZENDA PETROPOLIS, BR",-10.52,-69.83
"ASSIS BRASIL, BR",-10.93,-69.57
"MANOEL URBANO, BR",-8.88,-69.27
"SANTA ROSA DO PURUS, BR",-9.38,-70.47
"FOZ DO BREU, BR",-9.4,-72.7
"RIO PRETO DA EVA, BR",-2.7,-59.7
"CARAO, BR",-2.91,-60.67
"NOVO AIRAO, BR",-2.63,-60.94
"FAZENDA PAQUIRA, BR",-0.42,-53.7
"LOURENCO, BR",2.31,-51.64
"APALAI, BR",1.22,-54.66
"SAO FRANCISCO PCD, BR",-0.57,-52.58
"CARECURU, BR",-0.13,-52.93
"SERRA DO NAVIO PCD, BR",0.9,-52.01
"PANCADA, BR",-0.18,-51.8
"ACAMPAMENTO ICOMI, BR",0.34,-51.75
"MARIPASOULA, FG",3.633,-54.033
"JOHAN A PENGEL INTERNATIONAL, NS",5.453,-55.188
"LEONIDAS, BR",0.83,-51.63
"FAZENDA SAO JOSE, BR",0.52,-60.47
"SITIO SANTA MARIA, BR",0.78,-59.34
"FAZENDA CASTANHAL, BR",0.88,-59.65
"AGROPECUARIA BOA VISTA, BR",1.46,-60.77
"CARACARAI, BR",1.833,-61.133
"FAZENDA PARANA ANAUA, BR",1.13,-60.4
"CACHOEIRA MORENA, BR",-2.11,-59.34
"BARURI, BR",-2.02,-61.54
"ALDEIA WAI WAI, BR",-0.7,-57.97
"PRESIDENTE FIGUEIREDO, BR",-2.04,-60.03
"BALBINA P 8 UHE BALBINA, BR",-1.94,-59.48
"POSTO ABONARI FUNAI, BR",-1.3,-60.4
"UMANAPANA, BR",-1.88,-62.46
"CARVOEIRO, BR",-1.39,-61.98
"MOURA PCD, BR",-1.46,-61.63
"FAZENDA SAO LUCAS, BR",-0.23,-60.69
"BASE ALALAU, BR",-0.86,-60.52
"TERRA PRETA, BR",-0.87,-61.93
"RANCHO DO BARROSO, BR",-1.67,-58.54
"BASE DA SIDERAMA, BR",-1.64,-58.52
"JALAUACA, BR",-0.3,-62.76
"SANTA MARIA DO BOIACU PCD, BR",-0.51,-61.79
"CUMARU, BR",-0.6,-63.4
"PALMEIRAL, BR",-9.52,-64.81
"RIBERALTA, BL",-11.0,-66.117
"ESCOLA CARAMURU, BR",-10.51,-63.65
"GUAYARAMERIN, BR",-10.817,-65.349
"MINERACAO PONTE MASSANGANA, BR",-10.35,-63.42
"CACHOEIRA, BR",-7.7,-66.05
"FAZENDA BORANGABA, BR",-7.55,-67.56
"ALFREDO VASQUEZ COBO, CO",-4.193,-69.943
"SANTOS DUMONT, BR",-6.44,-68.24
"TABATINGA PCD, BR",-4.25,-69.95
"TERESINA, BR",-4.28,-69.73
"FAZ.SAO LUIZ NOVA CALIFORNIA, BR",-9.76,-66.61
"ESTIRAO DO REPOUSO, BR",-4.37,-70.93
"CACHOEIRA FORTALEZA JUSANTE, BR",-8.82,-66.18
"REST.PORTEIRA DO AMAZONAS, BR",-9.43,-67.28
"SOLEDADE, BR",-6.62,-69.13
"SERINGAL FORTALEZA, BR",-7.72,-66.98
"ABUNA, BR",-9.7,-65.35
"JUTAI, BR",-4.67,-68.92
"FLORIANO PEIXOTO, BR",-9.05,-67.37
"INAUINI, BR",-8.53,-67.42
"BOCA DO ACRE, BR",-8.75,-67.4
"FAZENDA SHEFFER, BR",-8.33,-65.72
"XIBAUA, BR",-5.89,-67.86
"SERINGAL SAO LUIZ, BR",-11.07,-64.08
"BOA VISTA DOS PACAAS, BR",-11.37,-64.89
"SANTA MARIA, BR",-4.68,-71.47
"LIVRAMENTO, BR",-0.29,-66.15
"CUCUI PCD, BR",1.21,-66.85
"LOURO POCO, BR",1.34,-68.69
"TUNUI, BR",1.39,-68.15
"FORTE DAS GRACAS, BR",-3.64,-66.1
"SAO PAULO DE OLIVENCA PCD, BR",-3.45,-68.8
"BARREIRA BRANCA, BR",-4.32,-67.33
"ESTIRAO DA SANTA CRUZ, BR",-4.29,-65.2
"MACUERU, BR",-1.63,-67.67
"BARREIRA ALTA, BR",-4.23,-67.9
"MARAA, BR",-1.82,-65.35
"SAN CARLOS RIO NEGRO, VE",1.93,-67.05
"VILA BITTENCOURT PCD, BR",-1.38,-69.42
"FAZENDA BOA ESPERANCA, BR",-5.13,-66.3
"SANTA ROSA AMANADONA, VE",1.45,-66.92
"PIRARARA POCO, BR",0.14,-69.21
"SAO FELIPE, BR",0.37,-67.31
"MALOCA SAO TOME, BR",0.17,-67.95
"PARI CACHOEIRA, BR",0.25,-69.78
"BARREIRINHA, BR",-2.1,-66.45
"TAPURUCUARA, BR",-0.417,-65.0
"BARRO ALTO, BR",-3.88,-63.79
"MISSAO ICANA, BR",1.07,-67.59
"SANTO ANTONIO DO ICA PCD, BR",-3.08,-67.93
"SANTA RITA DO WEIL, BR",-3.57,-69.37
"GAVIAO, BR",-4.84,-66.85
"ACANAUI, BR",-1.8,-66.55
"SANTA LUCIA, VE",1.17,-66.92
"IPIRANGA, BR",-2.983,-69.583
"SAO PEDRO, BR",-2.35,-65.12
"MARABITANA IAUARETE, BR",0.43,-68.83
"BALAIO, BR",0.39,-66.65
"SERINGAL JENIPAPO, BR",-6.0,-60.19
"NATAL TIGRE, BR",-6.93,-60.52
"BACABA, BR",-6.32,-64.88
"CANUTAMA, BR",-6.53,-64.38
"HUMAITA PCD, BR",-7.51,-63.03
"ARARI, BR",-5.68,-59.58
"BEABA, BR",-4.85,-62.87
"FAZENDA AGUA AZUL, BR",-7.82,-61.24
"FAZENDA BONSUCESSO, BR",-7.9,-61.18
"VILA DO APUI, BR",-7.2,-59.89
"FAZENDA BELA SOMBRA, BR",-5.85,-62.35
"NOVO ARIPUANA, BR",-5.12,-60.38
"SANTAREM SUCUNDURI PCD, BR",-6.8,-59.05
"CARIUACANGA, BR",-5.02,-62.8
"CASTANHAL PATU, BR",-5.67,-64.33
"MONTE ALEGRE, BR West",-5.59,-60.37
"NOVA ESPERANCA, BR",-6.36,-61.77
"RECREIO PEDREIRAS, BR",-5.29,-60.7
"SAO RAFAEL, BR",-6.25,-61.84
"GOIANO, BR",-7.85,-62.27
"CRISTO, BR",-7.25,-64.23
"ARUMA JUSANTE, BR",-4.73,-62.15
"ARUMA MONTANTE, BR",-4.73,-62.13
"BOCA DO GUARIBA, BR",-7.68,-60.3
"BOCA DO URUCU, BR",-7.15,-58.93
"PRAINHA VELHA, BR",-7.25,-60.4
"SERINGAL MOREIRA, BR",-5.11,-63.98
"ITATUBA, BR",-5.78,-63.35
"KM 1130 BR 163, BR",-6.67,-55.5
"FAZENDA AGROTEP, BR",-10.88,-57.58
"TRIVELATO, BR",-9.94,-57.13
"SANTA ROSA, BR",-8.87,-57.42
"KM 947 BR 163, BR",-8.19,-55.12
"MISSAO CURURU, BR",-7.6,-57.58
"FAZENDA TOMBADOR, BR",-11.78,-58.07
"RANCHO DE DEUS, BR",-11.0,-54.81
"AGRO PECUARIA CAJABI, BR",-10.75,-54.55
"JUSANTE FOZ PEIXOTO DE AZEVEDO, BR",-9.64,-56.02
"ALTA FLORESTA AERO, BR",-9.867,-56.1
"BRASNORTE, BR",-12.12,-58.0
"VALE DO NATAL, BR",-10.55,-58.87
"CACHIMBO, BR",-9.82,-54.89
"MENCRANOTIRE, BR",-8.65,-54.22
"NUCLEO ARIEL, BR",-9.86,-58.25
"JURUENA, BR",-10.32,-58.5
"JUARA, BR",-11.25,-57.51
"PORTO DOS GAUCHOS PCD, BR",-11.54,-57.42
"GARIMPO DO PATROCINIO, BR",-6.97,-56.47
"COLIDER, BR",-10.8,-55.45
"SANTA JULIA, BR",-6.78,-55.45
"INDECO, BR",-10.11,-55.57
"KM 1027 DA BR 163, BR",-7.51,-55.26
"NOVO PLANETA, BR",-9.37,-57.22
"ALDEIA DO BAU, BR",-7.33,-54.83
"ALENQUER, BR",-1.94,-54.74
"ARAPARI, BR",-1.77,-54.4
"AUTAZES, BR",-3.58,-59.13
"BALSA DO RIO URUBU, BR",-2.91,-59.04
"BARRAGEM CONJ.4, BR",-2.82,-54.3
"BARREIRINHA, BR East",-2.79,-57.06
"BOA VISTA DO RAMOS, BR",-2.97,-57.59
"BOCA DO INFERNO, BR",-1.5,-54.87
"BUBURE SAI CINZA, BR",-4.63,-56.3
"CACHOEIRA DA PORTEIRA I PCD, BR",-1.08,-57.05
"CARAMURI, BR",-4.23,-58.67
"CASTANHO, BR",-4.41,-58.13
"CURUAI, BR",-2.27,-55.48
"FAZENDA PARAMAZONAS, BR",-4.63,-57.9
"GUARIBA, BR",-3.23,-56.59
"JATOBA, BR",-5.15,-56.86
"JURUTI, BR",-2.15,-56.09
"KM 1326 BR 163, BR",-5.18,-56.06
"KM 1342 TRANSAMAZONICA, BR",-4.95,-56.88
"KM 1385 BR 163, BR",-4.75,-56.08
"MAUES, BR",-3.4,-57.72
"MOCAMBO, BR",-2.46,-57.28
"MUCAJA, BR",-3.9,-57.5
"NHAMUNDA, BR",-2.19,-56.71
"NITEROI TERRA PRETA II, BR",-4.75,-59.25
"NOVA OLINDA DO NORTE, BR",-3.88,-59.09
"ORIXIMINA, BR",-1.76,-55.86
"OSORIO FONSECA, BR",-3.82,-58.29
"PORTUGUES, BR",-1.87,-57.05
"SANTAREM AEROPORTO, BR",-2.433,-54.717
"URUCARA, BR",-2.54,-57.76
"VERA CRUZ, BR",-3.82,-57.18
"VILA CURUA, BR",-1.89,-55.12
"VISTA ALEGRE CONJ.2, BR",-1.13,-56.05
"CARRAZEDO, BR",-1.58,-51.92
"ALMEIRIM, BR",-1.53,-52.58
"CAJUEIRO, BR",-5.65,-54.52
"BELO HORIZONTE, BR",-5.41,-52.9
"ACAMPAMENTO IBDF, BR",-1.79,-51.43
"KARARAO, BR",-3.92,-52.88
"BRASIL NOVO, BR",-3.62,-52.54
"FAZENDA CIPAUBA, BR",-3.72,-51.57
"ALTAMIRA, BR",-3.2,-52.2
"GRANJA GAZELA, BR",-3.42,-51.26
"SITIO SAO PEDRO, BR",-3.89,-54.31
"URUARA, BR",-3.68,-53.55
"PRIMAVERA DO XINGU, BR",-6.05,-52.6
"CUPARI, BR",-4.18,-55.43
"FAZENDA MARCONDES, BR",-3.97,-54.64
"ITAPEUA DO PARA, BR",-1.75,-52.32
"MARACACUERA FLORESTAL, BR",-2.24,-51.18
"RUROPOLIS PRESIDENTE MEDICI, BR",-4.09,-54.9
"IRAPURU, BR",-2.45,-50.92
"ACANGATA, BR",-2.24,-50.63
"MONTE ALEGRE, BR",-4.67,-52.72
"PRAIA, BR",-4.81,-54.67
"UAICAS, BR",3.55,-63.17
"MALOCA DO ERICO, BR",3.63,-62.4
"SAN JUAN MANAPIARE, VE",5.23,-66.17
"MISSAO AUARIS, BR",4.0,-64.49
"TAMA TAMA, VE",3.15,-65.8
"ENTRE RIOS, VE",5.95,-64.43
"SANTA BARBARA ORINOCO, VE",3.93,-67.13
"SANTA MARIA GUAICAS, VE",2.8,-65.25
"SAN FERNANDO ATABAPO, VE",4.0,-67.67
"AMENADINA, VE",4.15,-63.75
"KAMARATA, VE",5.73,-62.33
"YEKUANA, VE",5.07,-65.22
"PIE DE SALTO, VE",6.3,-64.48
"MISSAO SURUCUCU PCD, BR",2.84,-63.64
